{"notifications": [{"item": {"unreadCount": 0}, "type": "notificationTray"}], "meta": {"code": 200, "requestId": "58cb01a19fb6b77779038760"}, "response": {"confident": true, "venues": [{"referralId": "v-1489699233", "verified": false, "name": "Mario A Cerame", "venueRatingBlacklisted": true, "venueChains": [], "url": "http://provider.kareo.com/mario-a-cerame", "hereNow": {"count": 0, "groups": [], "summary": "Nobody here"}, "specials": {"count": 0, "items": []}, "allowMenuUrlEdit": true, "contact": {"phone": "+16789921636", "formattedPhone": "+1 678-992-1636"}, "hasPerk": false, "location": {"distance": 2653, "labeledLatLngs": [{"lat": 34.1595247, "lng": -82.3818828, "label": "display"}], "city": "Abbeville", "cc": "US", "country": "United States", "postalCode": "29620", "state": "SC", "formattedAddress": ["420 Thompson Circle", "Abbeville, SC 29620", "United States"], "address": "420 Thompson Circle", "lat": 34.1595247, "lng": -82.3818828}, "beenHere": {"lastCheckinExpiredAt": 0}, "stats": {"tipCount": 0, "checkinsCount": 0, "usersCount": 0}, "id": "5750582fcd103329735413c0", "categories": [{"pluralName": "Doctor's Offices", "primary": true, "name": "Doctor's Office", "shortName": "Doctor's Office", "id": "4bf58dd8d48988d177941735", "icon": {"prefix": "https://ss3.4sqi.net/img/categories_v2/building/medical_doctorsoffice_", "suffix": ".png"}}]}, {"referralId": "v-1489699233", "verified": false, "name": "Wells Avenue Parking", "venueRatingBlacklisted": true, "venueChains": [], "hereNow": {"count": 0, "groups": [], "summary": "Nobody here"}, "specials": {"count": 0, "items": []}, "contact": {}, "hasPerk": false, "location": {"distance": 20777, "labeledLatLngs": [{"lat": 34.176715, "lng": -82.157858, "label": "display"}], "city": "Greenwood", "cc": "US", "country": "United States", "state": "SC", "formattedAddress": ["Greenwood, SC", "United States"], "lat": 34.176715, "lng": -82.157858}, "beenHere": {"lastCheckinExpiredAt": 0}, "stats": {"tipCount": 0, "checkinsCount": 2, "usersCount": 1}, "id": "58baa9cecc05d16157ef5953", "categories": [{"pluralName": "Hospitals", "primary": true, "name": "Hospital", "shortName": "Hospital", "id": "4bf58dd8d48988d196941735", "icon": {"prefix": "https://ss3.4sqi.net/img/categories_v2/building/medical_", "suffix": ".png"}}]}, {"referralId": "v-1489699233", "verified": false, "name": "Abbeville Area Medical Center", "venueRatingBlacklisted": true, "venueChains": [], "hereNow": {"count": 0, "groups": [], "summary": "Nobody here"}, "specials": {"count": 0, "items": []}, "contact": {}, "hasPerk": false, "location": {"distance": 2869, "labeledLatLngs": [{"lat": 34.157591073061404, "lng": -82.38164427810607, "label": "display"}], "city": "Abbeville", "cc": "US", "country": "United States", "postalCode": "29620", "state": "SC", "formattedAddress": ["163-207 County Road S-1-139", "Abbeville, SC 29620", "United States"], "address": "163-207 County Road S-1-139", "lat": 34.157591073061404, "lng": -82.38164427810607}, "beenHere": {"lastCheckinExpiredAt": 0}, "stats": {"tipCount": 0, "checkinsCount": 94, "usersCount": 34}, "id": "4d138f1d957fa1cd0a3f769f", "categories": [{"pluralName": "Hospitals", "primary": true, "name": "Hospital", "shortName": "Hospital", "id": "4bf58dd8d48988d196941735", "icon": {"prefix": "https://ss3.4sqi.net/img/categories_v2/building/medical_", "suffix": ".png"}}]}, {"referralId": "v-1489699233", "verified": false, "name": "SRH Progressive Care Unit", "venueRatingBlacklisted": true, "venueChains": [], "hereNow": {"count": 0, "groups": [], "summary": "Nobody here"}, "specials": {"count": 0, "items": []}, "contact": {}, "hasPerk": false, "location": {"distance": 20845, "labeledLatLngs": [{"lat": 34.176149396186254, "lng": -82.15714087423814, "label": "display"}], "city": "Greenwood", "cc": "US", "country": "United States", "postalCode": "29646", "state": "SC", "formattedAddress": ["Greenwood, SC 29646", "United States"], "lat": 34.176149396186254, "lng": -82.15714087423814}, "beenHere": {"lastCheckinExpiredAt": 0}, "stats": {"tipCount": 0, "checkinsCount": 385, "usersCount": 9}, "id": "513412a9e4b008f273e26484", "categories": [{"pluralName": "Hospitals", "primary": true, "name": "Hospital", "shortName": "Hospital", "id": "4bf58dd8d48988d196941735", "icon": {"prefix": "https://ss3.4sqi.net/img/categories_v2/building/medical_", "suffix": ".png"}}]}, {"referralId": "v-1489699233", "verified": false, "name": "SRH In-patient Pharmacy", "venueRatingBlacklisted": true, "venueChains": [], "hereNow": {"count": 0, "groups": [], "summary": "Nobody here"}, "specials": {"count": 0, "items": []}, "contact": {}, "hasPerk": false, "location": {"distance": 20938, "labeledLatLngs": [{"lat": 34.176055, "lng": -82.156136, "label": "display"}], "city": "Greenwood", "cc": "US", "country": "United States", "state": "SC", "formattedAddress": ["Greenwood, SC", "United States"], "lat": 34.176055, "lng": -82.156136}, "beenHere": {"lastCheckinExpiredAt": 0}, "stats": {"tipCount": 0, "checkinsCount": 26, "usersCount": 1}, "id": "55323ba2498ef7e26774db03", "categories": [{"pluralName": "Hospitals", "primary": true, "name": "Hospital", "shortName": "Hospital", "id": "4bf58dd8d48988d196941735", "icon": {"prefix": "https://ss3.4sqi.net/img/categories_v2/building/medical_", "suffix": ".png"}}]}, {"referralId": "v-1489699233", "verified": false, "name": "SRH 6 Tower", "venueRatingBlacklisted": true, "venueChains": [], "hereNow": {"count": 0, "groups": [], "summary": "Nobody here"}, "specials": {"count": 0, "items": []}, "contact": {}, "hasPerk": false, "location": {"distance": 20861, "labeledLatLngs": [{"lat": 34.176157924034136, "lng": -82.15696556685401, "label": "display"}], "city": "Greenwood", "cc": "US", "country": "United States", "state": "SC", "formattedAddress": ["Greenwood, SC", "United States"], "lat": 34.176157924034136, "lng": -82.15696556685401}, "beenHere": {"lastCheckinExpiredAt": 0}, "stats": {"tipCount": 0, "checkinsCount": 18, "usersCount": 3}, "id": "51b3c362498ec01494717d76", "categories": [{"pluralName": "Hospitals", "primary": true, "name": "Hospital", "shortName": "Hospital", "id": "4bf58dd8d48988d196941735", "icon": {"prefix": "https://ss3.4sqi.net/img/categories_v2/building/medical_", "suffix": ".png"}}]}, {"referralId": "v-1489699233", "verified": false, "name": "SRH CICU", "venueRatingBlacklisted": true, "venueChains": [], "hereNow": {"count": 0, "groups": [], "summary": "Nobody here"}, "specials": {"count": 0, "items": []}, "contact": {}, "hasPerk": false, "location": {"distance": 20833, "labeledLatLngs": [{"lat": 34.175408445433376, "lng": -82.1573108688644, "label": "display"}], "city": "Greenwood", "cc": "US", "country": "United States", "state": "SC", "formattedAddress": ["Greenwood, SC", "United States"], "lat": 34.175408445433376, "lng": -82.1573108688644}, "beenHere": {"lastCheckinExpiredAt": 0}, "stats": {"tipCount": 0, "checkinsCount": 21, "usersCount": 4}, "id": "5359a64d498e53222c01cc18", "categories": [{"pluralName": "Hospitals", "primary": true, "name": "Hospital", "shortName": "Hospital", "id": "4bf58dd8d48988d196941735", "icon": {"prefix": "https://ss3.4sqi.net/img/categories_v2/building/medical_", "suffix": ".png"}}]}, {"referralId": "v-1489699233", "verified": false, "name": "SRH ICU/CCU", "venueRatingBlacklisted": true, "venueChains": [], "hereNow": {"count": 0, "groups": [], "summary": "Nobody here"}, "specials": {"count": 0, "items": []}, "contact": {}, "hasPerk": false, "location": {"distance": 20839, "labeledLatLngs": [{"lat": 34.1757079870738, "lng": -82.15723649626544, "label": "display"}], "city": "Greenwood", "cc": "US", "country": "United States", "state": "SC", "formattedAddress": ["Greenwood, SC", "United States"], "lat": 34.1757079870738, "lng": -82.15723649626544}, "beenHere": {"lastCheckinExpiredAt": 0}, "stats": {"tipCount": 0, "checkinsCount": 57, "usersCount": 8}, "id": "513a9060e4b0d54acb01af79", "categories": [{"pluralName": "Hospitals", "primary": true, "name": "Hospital", "shortName": "Hospital", "id": "4bf58dd8d48988d196941735", "icon": {"prefix": "https://ss3.4sqi.net/img/categories_v2/building/medical_", "suffix": ".png"}}]}, {"referralId": "v-1489699233", "verified": false, "name": "2T Womens Center", "venueRatingBlacklisted": true, "venueChains": [], "hereNow": {"count": 0, "groups": [], "summary": "Nobody here"}, "specials": {"count": 0, "items": []}, "contact": {}, "hasPerk": false, "location": {"distance": 20933, "labeledLatLngs": [{"lat": 34.17621789964181, "lng": -82.1561899593002, "label": "display"}], "city": "Greenwood", "cc": "US", "country": "United States", "state": "SC", "formattedAddress": ["Greenwood, SC", "United States"], "lat": 34.17621789964181, "lng": -82.1561899593002}, "beenHere": {"lastCheckinExpiredAt": 0}, "stats": {"tipCount": 0, "checkinsCount": 3, "usersCount": 2}, "id": "519e5d88498e7b5e698ad450", "categories": [{"pluralName": "Hospitals", "primary": true, "name": "Hospital", "shortName": "Hospital", "id": "4bf58dd8d48988d196941735", "icon": {"prefix": "https://ss3.4sqi.net/img/categories_v2/building/medical_", "suffix": ".png"}}]}, {"referralId": "v-1489699233", "verified": false, "name": "SRH Basement", "venueRatingBlacklisted": true, "venueChains": [], "hereNow": {"count": 0, "groups": [], "summary": "Nobody here"}, "specials": {"count": 0, "items": []}, "contact": {}, "hasPerk": false, "location": {"distance": 20838, "labeledLatLngs": [{"lat": 34.176154, "lng": -82.157216, "label": "display"}], "city": "Greenwood", "cc": "US", "country": "United States", "state": "SC", "formattedAddress": ["Greenwood, SC", "United States"], "lat": 34.176154, "lng": -82.157216}, "beenHere": {"lastCheckinExpiredAt": 0}, "stats": {"tipCount": 0, "checkinsCount": 2, "usersCount": 2}, "id": "55b8da5c498edb41f8892fd8", "categories": [{"pluralName": "Hospitals", "primary": true, "name": "Hospital", "shortName": "Hospital", "id": "4bf58dd8d48988d196941735", "icon": {"prefix": "https://ss3.4sqi.net/img/categories_v2/building/medical_", "suffix": ".png"}}]}, {"referralId": "v-1489699233", "verified": false, "name": "SRH-Nesbit Center", "venueRatingBlacklisted": true, "venueChains": [], "hereNow": {"count": 0, "groups": [], "summary": "Nobody here"}, "specials": {"count": 0, "items": []}, "contact": {}, "hasPerk": false, "location": {"distance": 20908, "labeledLatLngs": [{"lat": 34.177495132177405, "lng": -82.15640245536207, "label": "display"}], "city": "Greenwood", "cc": "US", "country": "United States", "postalCode": "29646", "state": "SC", "formattedAddress": ["Greenwood, SC 29646", "United States"], "lat": 34.177495132177405, "lng": -82.15640245536207}, "beenHere": {"lastCheckinExpiredAt": 0}, "stats": {"tipCount": 0, "checkinsCount": 60, "usersCount": 4}, "id": "512f6148e4b0eca9e4d4ad71", "categories": [{"pluralName": "Hospitals", "primary": true, "name": "Hospital", "shortName": "Hospital", "id": "4bf58dd8d48988d196941735", "icon": {"prefix": "https://ss3.4sqi.net/img/categories_v2/building/medical_", "suffix": ".png"}}]}, {"referralId": "v-1489699233", "verified": false, "name": "SRH-Pediatrics", "venueRatingBlacklisted": true, "venueChains": [], "hereNow": {"count": 0, "groups": [], "summary": "Nobody here"}, "specials": {"count": 0, "items": []}, "contact": {}, "hasPerk": false, "location": {"distance": 20924, "labeledLatLngs": [{"lat": 34.176491, "lng": -82.156265, "label": "display"}], "city": "Greenwood", "cc": "US", "country": "United States", "state": "SC", "formattedAddress": ["Greenwood, SC", "United States"], "lat": 34.176491, "lng": -82.156265}, "beenHere": {"lastCheckinExpiredAt": 0}, "stats": {"tipCount": 0, "checkinsCount": 3, "usersCount": 2}, "id": "513cd252e4b01394c2a0eb0e", "categories": [{"pluralName": "Hospitals", "primary": true, "name": "Hospital", "shortName": "Hospital", "id": "4bf58dd8d48988d196941735", "icon": {"prefix": "https://ss3.4sqi.net/img/categories_v2/building/medical_", "suffix": ".png"}}]}, {"referralId": "v-1489699233", "verified": false, "name": "CICU Waiting Room", "venueRatingBlacklisted": true, "venueChains": [], "hereNow": {"count": 0, "groups": [], "summary": "Nobody here"}, "specials": {"count": 0, "items": []}, "contact": {}, "hasPerk": false, "location": {"distance": 20841, "labeledLatLngs": [{"lat": 34.175546, "lng": -82.157222, "label": "display"}], "city": "Greenwood", "cc": "US", "country": "United States", "postalCode": "29646", "state": "SC", "formattedAddress": ["Spring Street", "Greenwood, SC 29646", "United States"], "crossStreet": "Spring Street", "lat": 34.175546, "lng": -82.157222}, "beenHere": {"lastCheckinExpiredAt": 0}, "stats": {"tipCount": 0, "checkinsCount": 3, "usersCount": 2}, "id": "50ec1e55e4b0d10b525305f3", "categories": [{"pluralName": "Hospitals", "primary": true, "name": "Hospital", "shortName": "Hospital", "id": "4bf58dd8d48988d196941735", "icon": {"prefix": "https://ss3.4sqi.net/img/categories_v2/building/medical_", "suffix": ".png"}}]}, {"referralId": "v-1489699233", "verified": false, "name": "SRH 4 Tower", "venueRatingBlacklisted": true, "venueChains": [], "hereNow": {"count": 0, "groups": [], "summary": "Nobody here"}, "specials": {"count": 0, "items": []}, "contact": {}, "hasPerk": false, "location": {"distance": 20847, "labeledLatLngs": [{"lat": 34.176274, "lng": -82.157119, "label": "display"}], "city": "Greenwood", "cc": "US", "country": "United States", "state": "SC", "formattedAddress": ["Greenwood, SC", "United States"], "lat": 34.176274, "lng": -82.157119}, "beenHere": {"lastCheckinExpiredAt": 0}, "stats": {"tipCount": 0, "checkinsCount": 6, "usersCount": 2}, "id": "54707aef498e6ff0921eb246", "categories": [{"pluralName": "Hospitals", "primary": true, "name": "Hospital", "shortName": "Hospital", "id": "4bf58dd8d48988d196941735", "icon": {"prefix": "https://ss3.4sqi.net/img/categories_v2/building/medical_", "suffix": ".png"}}]}, {"referralId": "v-1489699233", "verified": false, "name": "Self Regional Healthcare", "venueRatingBlacklisted": true, "venueChains": [], "hereNow": {"count": 0, "groups": [], "summary": "Nobody here"}, "specials": {"count": 0, "items": []}, "allowMenuUrlEdit": true, "contact": {}, "hasPerk": false, "location": {"distance": 20841, "labeledLatLngs": [{"lat": 34.17550543580317, "lng": -82.15721524693716, "label": "display"}], "city": "Greenwood", "cc": "US", "country": "United States", "postalCode": "29646", "state": "SC", "formattedAddress": ["1325 Spring St", "Greenwood, SC 29646", "United States"], "address": "1325 Spring St", "lat": 34.17550543580317, "lng": -82.15721524693716}, "beenHere": {"lastCheckinExpiredAt": 0}, "stats": {"tipCount": 8, "checkinsCount": 3476, "usersCount": 295}, "id": "4bf9cb2a5317a59322e5017f", "categories": [{"pluralName": "Hospitals", "primary": true, "name": "Hospital", "shortName": "Hospital", "id": "4bf58dd8d48988d196941735", "icon": {"prefix": "https://ss3.4sqi.net/img/categories_v2/building/medical_", "suffix": ".png"}}]}, {"referralId": "v-1489699233", "verified": false, "name": "SRH-Radiology Main X-ray", "venueRatingBlacklisted": true, "venueChains": [], "hereNow": {"count": 0, "groups": [], "summary": "Nobody here"}, "specials": {"count": 0, "items": []}, "contact": {}, "hasPerk": false, "location": {"distance": 20985, "labeledLatLngs": [{"lat": 34.176171927213474, "lng": -82.1556215292126, "label": "display"}], "city": "Greenwood", "cc": "US", "country": "United States", "state": "SC", "formattedAddress": ["Greenwood, SC", "United States"], "lat": 34.176171927213474, "lng": -82.1556215292126}, "beenHere": {"lastCheckinExpiredAt": 0}, "stats": {"tipCount": 0, "checkinsCount": 8, "usersCount": 1}, "id": "51422600e4b0e8b13cd3f266", "categories": [{"pluralName": "Hospitals", "primary": true, "name": "Hospital", "shortName": "Hospital", "id": "4bf58dd8d48988d196941735", "icon": {"prefix": "https://ss3.4sqi.net/img/categories_v2/building/medical_", "suffix": ".png"}}]}, {"referralId": "v-1489699233", "verified": false, "name": "Greenwood Regional Rehabilitation Hospital", "venueRatingBlacklisted": true, "venueChains": [], "hereNow": {"count": 0, "groups": [], "summary": "Nobody here"}, "specials": {"count": 0, "items": []}, "contact": {"phone": "+18643301800", "formattedPhone": "+1 864-330-1800"}, "hasPerk": false, "location": {"distance": 21013, "labeledLatLngs": [{"lat": 34.166987443592085, "lng": -82.15602527441538, "label": "display"}], "city": "Greenwood", "cc": "US", "country": "United States", "postalCode": "29646", "state": "SC", "formattedAddress": ["1530 Parkway", "Greenwood, SC 29646", "United States"], "address": "1530 Parkway", "lat": 34.166987443592085, "lng": -82.15602527441538}, "beenHere": {"lastCheckinExpiredAt": 0}, "stats": {"tipCount": 0, "checkinsCount": 247, "usersCount": 32}, "id": "4bf4002fe5eba593c01b1f90", "categories": [{"pluralName": "Hospitals", "primary": true, "name": "Hospital", "shortName": "Hospital", "id": "4bf58dd8d48988d196941735", "icon": {"prefix": "https://ss3.4sqi.net/img/categories_v2/building/medical_", "suffix": ".png"}}]}, {"referralId": "v-1489699233", "verified": false, "name": "SRH 3 Tower", "venueRatingBlacklisted": true, "venueChains": [], "hereNow": {"count": 0, "groups": [], "summary": "Nobody here"}, "specials": {"count": 0, "items": []}, "contact": {}, "hasPerk": false, "location": {"distance": 20863, "labeledLatLngs": [{"lat": 34.17623821653254, "lng": -82.15694962979767, "label": "display"}], "city": "Greenwood", "cc": "US", "country": "United States", "state": "SC", "formattedAddress": ["Greenwood, SC", "United States"], "lat": 34.17623821653254, "lng": -82.15694962979767}, "beenHere": {"lastCheckinExpiredAt": 0}, "stats": {"tipCount": 0, "checkinsCount": 8, "usersCount": 2}, "id": "516dea5de4b05053e1f1ed15", "categories": [{"pluralName": "Hospitals", "primary": true, "name": "Hospital", "shortName": "Hospital", "id": "4bf58dd8d48988d196941735", "icon": {"prefix": "https://ss3.4sqi.net/img/categories_v2/building/medical_", "suffix": ".png"}}]}, {"referralId": "v-1489699233", "verified": false, "name": "SRH-Ultrasound Dept", "venueRatingBlacklisted": true, "venueChains": [], "hereNow": {"count": 0, "groups": [], "summary": "Nobody here"}, "specials": {"count": 0, "items": []}, "contact": {}, "hasPerk": false, "location": {"distance": 20990, "labeledLatLngs": [{"lat": 34.176119, "lng": -82.155566, "label": "display"}], "city": "Greenwood", "cc": "US", "country": "United States", "state": "SC", "formattedAddress": ["Greenwood, SC", "United States"], "lat": 34.176119, "lng": -82.155566}, "beenHere": {"lastCheckinExpiredAt": 0}, "stats": {"tipCount": 0, "checkinsCount": 2, "usersCount": 1}, "id": "51422a05e4b04e44b7b2507b", "categories": [{"pluralName": "Hospitals", "primary": true, "name": "Hospital", "shortName": "Hospital", "id": "4bf58dd8d48988d196941735", "icon": {"prefix": "https://ss3.4sqi.net/img/categories_v2/building/medical_", "suffix": ".png"}}]}, {"referralId": "v-1489699233", "verified": false, "name": "Kinard Animal Hospital", "venueRatingBlacklisted": true, "venueChains": [], "hereNow": {"count": 0, "groups": [], "summary": "Nobody here"}, "specials": {"count": 0, "items": []}, "contact": {"phone": "+18642233925", "formattedPhone": "+1 864-223-3925"}, "hasPerk": false, "location": {"distance": 21990, "labeledLatLngs": [{"lat": 34.209157681298905, "lng": -82.14655259544756, "label": "display"}], "city": "Greenwood", "cc": "US", "country": "United States", "postalCode": "29649", "state": "SC", "formattedAddress": ["1305 Hwy 72-221 E", "Greenwood, SC 29649", "United States"], "address": "1305 Hwy 72-221 E", "lat": 34.209157681298905, "lng": -82.14655259544756}, "beenHere": {"lastCheckinExpiredAt": 0}, "stats": {"tipCount": 1, "checkinsCount": 35, "usersCount": 20}, "id": "4cebe570f8653704b665c5c4", "categories": [{"pluralName": "Hospitals", "primary": true, "name": "Hospital", "shortName": "Hospital", "id": "4bf58dd8d48988d196941735", "icon": {"prefix": "https://ss3.4sqi.net/img/categories_v2/building/medical_", "suffix": ".png"}}]}, {"referralId": "v-1489699233", "verified": false, "name": "SRH-Recovery Room", "venueRatingBlacklisted": true, "venueChains": [], "hereNow": {"count": 0, "groups": [], "summary": "Nobody here"}, "specials": {"count": 0, "items": []}, "contact": {}, "hasPerk": false, "location": {"distance": 20824, "labeledLatLngs": [{"lat": 34.17625, "lng": -82.157365, "label": "display"}], "city": "Greenwood", "cc": "US", "country": "United States", "state": "SC", "formattedAddress": ["Greenwood, SC", "United States"], "lat": 34.17625, "lng": -82.157365}, "beenHere": {"lastCheckinExpiredAt": 0}, "stats": {"tipCount": 0, "checkinsCount": 2, "usersCount": 2}, "id": "516bf115e4b0a88e0655cd0e", "categories": [{"pluralName": "Hospitals", "primary": true, "name": "Hospital", "shortName": "Hospital", "id": "4bf58dd8d48988d196941735", "icon": {"prefix": "https://ss3.4sqi.net/img/categories_v2/building/medical_", "suffix": ".png"}}]}, {"referralId": "v-1489699233", "verified": false, "name": "Magnolia Manor", "venueRatingBlacklisted": true, "venueChains": [], "hereNow": {"count": 0, "groups": [], "summary": "Nobody here"}, "specials": {"count": 0, "items": []}, "contact": {}, "hasPerk": false, "location": {"distance": 20826, "labeledLatLngs": [{"lat": 34.1722416038442, "lng": -82.15758710926498, "label": "display"}], "city": "Greenwood", "cc": "US", "country": "United States", "postalCode": "29646", "state": "SC", "formattedAddress": ["1415 Parkway", "Greenwood, SC 29646", "United States"], "address": "1415 Parkway", "lat": 34.1722416038442, "lng": -82.15758710926498}, "beenHere": {"lastCheckinExpiredAt": 0}, "stats": {"tipCount": 0, "checkinsCount": 38, "usersCount": 11}, "id": "4d62e1082bbcf04d4787e623", "categories": [{"pluralName": "Hospitals", "primary": true, "name": "Hospital", "shortName": "Hospital", "id": "4bf58dd8d48988d196941735", "icon": {"prefix": "https://ss3.4sqi.net/img/categories_v2/building/medical_", "suffix": ".png"}}]}, {"referralId": "v-1489699233", "verified": false, "name": "Home Health Services of SRH", "venueRatingBlacklisted": true, "venueChains": [], "hereNow": {"count": 0, "groups": [], "summary": "Nobody here"}, "specials": {"count": 0, "items": []}, "contact": {}, "hasPerk": false, "location": {"distance": 20899, "labeledLatLngs": [{"lat": 34.17332079449485, "lng": -82.15671588589389, "label": "display"}], "city": "Greenwood", "cc": "US", "country": "United States", "postalCode": "29646", "state": "SC", "formattedAddress": ["303 W Alexander Ave Ste A", "Greenwood, SC 29646", "United States"], "address": "303 W Alexander Ave Ste A", "lat": 34.17332079449485, "lng": -82.15671588589389}, "beenHere": {"lastCheckinExpiredAt": 0}, "stats": {"tipCount": 0, "checkinsCount": 33, "usersCount": 1}, "id": "519387e4498ea7e774e3faaa", "categories": [{"pluralName": "Hospitals", "primary": true, "name": "Hospital", "shortName": "Hospital", "id": "4bf58dd8d48988d196941735", "icon": {"prefix": "https://ss3.4sqi.net/img/categories_v2/building/medical_", "suffix": ".png"}}]}, {"referralId": "v-1489699233", "verified": false, "name": "Greenwood rehab", "venueRatingBlacklisted": true, "venueChains": [], "hereNow": {"count": 0, "groups": [], "summary": "Nobody here"}, "specials": {"count": 0, "items": []}, "contact": {}, "hasPerk": false, "location": {"distance": 19258, "labeledLatLngs": [{"lat": 34.22437, "lng": -82.1801154, "label": "display"}], "cc": "US", "country": "United States", "state": "South Carolina", "formattedAddress": ["South Carolina", "United States"], "lat": 34.22437, "lng": -82.1801154}, "beenHere": {"lastCheckinExpiredAt": 0}, "stats": {"tipCount": 0, "checkinsCount": 1, "usersCount": 1}, "id": "4f621abae4b0b984be38a0b9", "categories": [{"pluralName": "Hospitals", "primary": true, "name": "Hospital", "shortName": "Hospital", "id": "4bf58dd8d48988d196941735", "icon": {"prefix": "https://ss3.4sqi.net/img/categories_v2/building/medical_", "suffix": ".png"}}]}, {"referralId": "v-1489699233", "verified": false, "name": "SRH Employee Health", "venueRatingBlacklisted": true, "venueChains": [], "hereNow": {"count": 0, "groups": [], "summary": "Nobody here"}, "specials": {"count": 0, "items": []}, "contact": {}, "hasPerk": false, "location": {"distance": 21038, "labeledLatLngs": [{"lat": 34.17568855881083, "lng": -82.15506903206153, "label": "display"}], "city": "Greenwood", "cc": "US", "country": "United States", "state": "SC", "formattedAddress": ["Greenwood, SC", "United States"], "lat": 34.17568855881083, "lng": -82.15506903206153}, "beenHere": {"lastCheckinExpiredAt": 0}, "stats": {"tipCount": 0, "checkinsCount": 16, "usersCount": 2}, "id": "513f0581e4b04856b484d9b4", "categories": [{"pluralName": "Hospitals", "primary": true, "name": "Hospital", "shortName": "Hospital", "id": "4bf58dd8d48988d196941735", "icon": {"prefix": "https://ss3.4sqi.net/img/categories_v2/building/medical_", "suffix": ".png"}}]}, {"referralId": "v-1489699233", "verified": false, "name": "SRH-7 Tower.", "venueRatingBlacklisted": true, "venueChains": [], "hereNow": {"count": 0, "groups": [], "summary": "Nobody here"}, "specials": {"count": 0, "items": []}, "contact": {}, "hasPerk": false, "location": {"distance": 20857, "labeledLatLngs": [{"lat": 34.17631382493881, "lng": -82.15700275330497, "label": "display"}], "city": "Greenwood", "cc": "US", "country": "United States", "state": "SC", "formattedAddress": ["Greenwood, SC", "United States"], "lat": 34.17631382493881, "lng": -82.15700275330497}, "beenHere": {"lastCheckinExpiredAt": 0}, "stats": {"tipCount": 0, "checkinsCount": 19, "usersCount": 4}, "id": "513ce4c2e4b0946e307ef933", "categories": [{"pluralName": "Hospitals", "primary": true, "name": "Hospital", "shortName": "Hospital", "id": "4bf58dd8d48988d196941735", "icon": {"prefix": "https://ss3.4sqi.net/img/categories_v2/building/medical_", "suffix": ".png"}}]}, {"referralId": "v-1489699233", "verified": false, "name": "Self Regional Healthcare-Ambulatory Care Surgery Center", "venueRatingBlacklisted": true, "venueChains": [], "hereNow": {"count": 0, "groups": [], "summary": "Nobody here"}, "specials": {"count": 0, "items": []}, "contact": {}, "hasPerk": false, "location": {"distance": 20839, "labeledLatLngs": [{"lat": 34.175254, "lng": -82.157251, "label": "display"}], "city": "Greenwood", "cc": "US", "country": "United States", "state": "SC", "formattedAddress": ["Greenwood, SC", "United States"], "lat": 34.175254, "lng": -82.157251}, "beenHere": {"lastCheckinExpiredAt": 0}, "stats": {"tipCount": 0, "checkinsCount": 10, "usersCount": 5}, "id": "516bce5fe4b097898e0f2dc9", "categories": [{"pluralName": "Hospitals", "primary": true, "name": "Hospital", "shortName": "Hospital", "id": "4bf58dd8d48988d196941735", "icon": {"prefix": "https://ss3.4sqi.net/img/categories_v2/building/medical_", "suffix": ".png"}}]}, {"referralId": "v-1489699233", "verified": false, "name": "SRH 5 Tower", "venueRatingBlacklisted": true, "venueChains": [], "hereNow": {"count": 0, "groups": [], "summary": "Nobody here"}, "specials": {"count": 0, "items": []}, "contact": {}, "hasPerk": false, "location": {"distance": 20938, "labeledLatLngs": [{"lat": 34.1750893778972, "lng": -82.15618464689052, "label": "display"}], "city": "Greenwood", "cc": "US", "country": "United States", "state": "SC", "formattedAddress": ["Greenwood, SC", "United States"], "lat": 34.1750893778972, "lng": -82.15618464689052}, "beenHere": {"lastCheckinExpiredAt": 0}, "stats": {"tipCount": 0, "checkinsCount": 9, "usersCount": 3}, "id": "51f1eafbe4b0e07947daaa6b", "categories": [{"pluralName": "Hospitals", "primary": true, "name": "Hospital", "shortName": "Hospital", "id": "4bf58dd8d48988d196941735", "icon": {"prefix": "https://ss3.4sqi.net/img/categories_v2/building/medical_", "suffix": ".png"}}]}, {"referralId": "v-1489699233", "verified": false, "name": "SRH- CT Dept", "venueRatingBlacklisted": true, "venueChains": [], "hereNow": {"count": 0, "groups": [], "summary": "Nobody here"}, "specials": {"count": 0, "items": []}, "contact": {}, "hasPerk": false, "location": {"distance": 20904, "labeledLatLngs": [{"lat": 34.176470593909805, "lng": -82.15649276599602, "label": "display"}], "city": "Greenwood", "cc": "US", "country": "United States", "state": "SC", "formattedAddress": ["Greenwood, SC", "United States"], "lat": 34.176470593909805, "lng": -82.15649276599602}, "beenHere": {"lastCheckinExpiredAt": 0}, "stats": {"tipCount": 0, "checkinsCount": 22, "usersCount": 3}, "id": "51422590e4b0b77be9070d45", "categories": [{"pluralName": "Hospitals", "primary": true, "name": "Hospital", "shortName": "Hospital", "id": "4bf58dd8d48988d196941735", "icon": {"prefix": "https://ss3.4sqi.net/img/categories_v2/building/medical_", "suffix": ".png"}}]}, {"referralId": "v-1489699233", "verified": false, "name": "Self Regional Hospital", "venueRatingBlacklisted": true, "venueChains": [], "hereNow": {"count": 0, "groups": [], "summary": "Nobody here"}, "specials": {"count": 0, "items": []}, "contact": {}, "hasPerk": false, "location": {"distance": 20908, "labeledLatLngs": [{"lat": 34.176193205290964, "lng": -82.15646089166773, "label": "display"}], "city": "Greenwood", "cc": "US", "country": "United States", "postalCode": "29646", "state": "SC", "formattedAddress": ["Greenwood, SC 29646", "United States"], "lat": 34.176193205290964, "lng": -82.15646089166773}, "beenHere": {"lastCheckinExpiredAt": 0}, "stats": {"tipCount": 2, "checkinsCount": 524, "usersCount": 179}, "id": "4ba8fee0f964a520ba013ae3", "categories": [{"pluralName": "Hospitals", "primary": true, "name": "Hospital", "shortName": "Hospital", "id": "4bf58dd8d48988d196941735", "icon": {"prefix": "https://ss3.4sqi.net/img/categories_v2/building/medical_", "suffix": ".png"}}]}]}}