{"notifications": [{"item": {"unreadCount": 0}, "type": "notificationTray"}], "meta": {"code": 200, "requestId": "58cb01d46a607125f537af08"}, "response": {"confident": true, "venues": [{"referralId": "v-1489699284", "verified": false, "name": "Barnesville Hospital", "venueRatingBlacklisted": true, "venueChains": [], "hereNow": {"count": 0, "groups": [], "summary": "Nobody here"}, "specials": {"count": 0, "items": []}, "contact": {}, "hasPerk": false, "location": {"distance": 19436, "labeledLatLngs": [{"lat": 39.99275661666924, "lng": -81.1892854797028, "label": "display"}], "city": "Barnesville", "cc": "US", "country": "United States", "postalCode": "43713", "state": "OH", "formattedAddress": ["Barnesville, OH 43713", "United States"], "lat": 39.99275661666924, "lng": -81.1892854797028}, "beenHere": {"lastCheckinExpiredAt": 0}, "stats": {"tipCount": 0, "checkinsCount": 170, "usersCount": 44}, "id": "4bb0ba30f964a520ef573ce3", "categories": [{"pluralName": "Hospitals", "primary": true, "name": "Hospital", "shortName": "Hospital", "id": "4bf58dd8d48988d196941735", "icon": {"prefix": "https://ss3.4sqi.net/img/categories_v2/building/medical_", "suffix": ".png"}}]}, {"referralId": "v-1489699284", "verified": false, "name": "Southeastern Ohio Regional Medical Center", "venueRatingBlacklisted": true, "venueChains": [], "hereNow": {"count": 0, "groups": [], "summary": "Nobody here"}, "specials": {"count": 0, "items": []}, "contact": {}, "hasPerk": false, "location": {"distance": 21140, "labeledLatLngs": [{"lat": 40.04055088374015, "lng": -81.57739302456872, "label": "display"}], "city": "Cambridge", "cc": "US", "country": "United States", "postalCode": "43725", "state": "OH", "formattedAddress": ["1341 Clark St", "Cambridge, OH 43725", "United States"], "address": "1341 Clark St", "lat": 40.04055088374015, "lng": -81.57739302456872}, "beenHere": {"lastCheckinExpiredAt": 0}, "stats": {"tipCount": 0, "checkinsCount": 386, "usersCount": 130}, "id": "4c448052f97fbe9a263dbb30", "categories": [{"pluralName": "Medical Schools", "primary": true, "name": "Medical School", "shortName": "Medical School", "id": "4bf58dd8d48988d1b3941735", "icon": {"prefix": "https://ss3.4sqi.net/img/categories_v2/building/medical_", "suffix": ".png"}}]}, {"referralId": "v-1489699284", "verified": false, "name": "The Looney Bin", "venueRatingBlacklisted": true, "venueChains": [], "hereNow": {"count": 0, "groups": [], "summary": "Nobody here"}, "specials": {"count": 0, "items": []}, "contact": {}, "hasPerk": false, "location": {"distance": 28305, "labeledLatLngs": [{"lat": 40.30956465058409, "lng": -81.56694521101412, "label": "display"}], "city": "Newcomerstown", "cc": "US", "country": "United States", "postalCode": "43832", "state": "OH", "formattedAddress": ["Newcomerstown, OH 43832", "United States"], "lat": 40.30956465058409, "lng": -81.56694521101412}, "beenHere": {"lastCheckinExpiredAt": 0}, "stats": {"tipCount": 0, "checkinsCount": 17, "usersCount": 17}, "id": "4c30be99ed37a593fd4b6903", "categories": [{"pluralName": "Hospitals", "primary": true, "name": "Hospital", "shortName": "Hospital", "id": "4bf58dd8d48988d196941735", "icon": {"prefix": "https://ss3.4sqi.net/img/categories_v2/building/medical_", "suffix": ".png"}}]}, {"referralId": "v-1489699284", "verified": false, "name": "mount carmel east", "venueRatingBlacklisted": true, "venueChains": [], "hereNow": {"count": 0, "groups": [], "summary": "Nobody here"}, "specials": {"count": 0, "items": []}, "contact": {}, "hasPerk": false, "location": {"distance": 22893, "labeledLatLngs": [{"lat": 39.98909378051758, "lng": -81.56073760986328, "label": "display"}], "cc": "US", "country": "United States", "state": "Ohio", "formattedAddress": ["Ohio", "United States"], "lat": 39.98909378051758, "lng": -81.56073760986328}, "beenHere": {"lastCheckinExpiredAt": 0}, "stats": {"tipCount": 0, "checkinsCount": 2, "usersCount": 1}, "id": "5150deece4b0cbcf663ca819", "categories": [{"pluralName": "Hospitals", "primary": true, "name": "Hospital", "shortName": "Hospital", "id": "4bf58dd8d48988d196941735", "icon": {"prefix": "https://ss3.4sqi.net/img/categories_v2/building/medical_", "suffix": ".png"}}]}, {"referralId": "v-1489699284", "verified": false, "name": "Kidney Care Center Cambridge", "venueRatingBlacklisted": true, "venueChains": [], "hereNow": {"count": 0, "groups": [], "summary": "Nobody here"}, "specials": {"count": 0, "items": []}, "contact": {}, "hasPerk": false, "location": {"distance": 25130, "labeledLatLngs": [{"lat": 40.01753534117903, "lng": -81.61503268145184, "label": "display"}], "city": "Cambridge", "cc": "US", "country": "United States", "state": "OH", "formattedAddress": ["Cambridge, OH", "United States"], "lat": 40.01753534117903, "lng": -81.61503268145184}, "beenHere": {"lastCheckinExpiredAt": 0}, "stats": {"tipCount": 0, "checkinsCount": 9, "usersCount": 3}, "id": "5292201411d22867cdfd6c5f", "categories": [{"pluralName": "Hospitals", "primary": true, "name": "Hospital", "shortName": "Hospital", "id": "4bf58dd8d48988d196941735", "icon": {"prefix": "https://ss3.4sqi.net/img/categories_v2/building/medical_", "suffix": ".png"}}]}, {"referralId": "v-1489699284", "verified": false, "name": "child birth center room 125", "venueRatingBlacklisted": true, "venueChains": [], "hereNow": {"count": 0, "groups": [], "summary": "Nobody here"}, "specials": {"count": 0, "items": []}, "contact": {}, "hasPerk": false, "location": {"distance": 21186, "labeledLatLngs": [{"lat": 40.04039001464844, "lng": -81.577880859375, "label": "display"}], "city": "Cambridge", "cc": "US", "country": "United States", "state": "OH", "formattedAddress": ["Cambridge, OH", "United States"], "lat": 40.04039001464844, "lng": -81.577880859375}, "beenHere": {"lastCheckinExpiredAt": 0}, "stats": {"tipCount": 0, "checkinsCount": 1, "usersCount": 1}, "id": "515c6874e4b0041058c6cc30", "categories": [{"pluralName": "Hospitals", "primary": true, "name": "Hospital", "shortName": "Hospital", "id": "4bf58dd8d48988d196941735", "icon": {"prefix": "https://ss3.4sqi.net/img/categories_v2/building/medical_", "suffix": ".png"}}]}, {"referralId": "v-1489699284", "verified": false, "name": "Cambridge Health and Rehabilitation Center", "venueRatingBlacklisted": true, "venueChains": [], "hereNow": {"count": 0, "groups": [], "summary": "Nobody here"}, "specials": {"count": 0, "items": []}, "contact": {}, "hasPerk": false, "location": {"distance": 21090, "labeledLatLngs": [{"lat": 40.04709788915379, "lng": -81.58032200643824, "label": "display"}], "city": "Cambridge", "cc": "US", "country": "United States", "postalCode": "43725", "state": "OH", "formattedAddress": ["Cambridge, OH 43725", "United States"], "lat": 40.04709788915379, "lng": -81.58032200643824}, "beenHere": {"lastCheckinExpiredAt": 0}, "stats": {"tipCount": 0, "checkinsCount": 5, "usersCount": 4}, "id": "4c013baf9a950f478bc208c6", "categories": [{"pluralName": "Hospitals", "primary": true, "name": "Hospital", "shortName": "Hospital", "id": "4bf58dd8d48988d196941735", "icon": {"prefix": "https://ss3.4sqi.net/img/categories_v2/building/medical_", "suffix": ".png"}}]}, {"referralId": "v-1489699284", "verified": false, "name": "Room 415", "venueRatingBlacklisted": true, "venueChains": [], "hereNow": {"count": 0, "groups": [], "summary": "Nobody here"}, "specials": {"count": 0, "items": []}, "contact": {}, "hasPerk": false, "location": {"distance": 20741, "labeledLatLngs": [{"lat": 40.031202, "lng": -81.566375, "label": "display"}], "city": "Cambridge", "cc": "US", "country": "United States", "postalCode": "43725", "state": "OH", "formattedAddress": ["Cambridge, OH 43725", "United States"], "lat": 40.031202, "lng": -81.566375}, "beenHere": {"lastCheckinExpiredAt": 0}, "stats": {"tipCount": 0, "checkinsCount": 4, "usersCount": 2}, "id": "4dda53bc2271c5d36d7f2b12", "categories": [{"pluralName": "Hospitals", "primary": true, "name": "Hospital", "shortName": "Hospital", "id": "4bf58dd8d48988d196941735", "icon": {"prefix": "https://ss3.4sqi.net/img/categories_v2/building/medical_", "suffix": ".png"}}]}, {"referralId": "v-1489699284", "verified": false, "name": "southeastern outpatient lab", "venueRatingBlacklisted": true, "venueChains": [], "hereNow": {"count": 0, "groups": [], "summary": "Nobody here"}, "specials": {"count": 0, "items": []}, "contact": {}, "hasPerk": false, "location": {"distance": 21081, "labeledLatLngs": [{"lat": 40.04106490314508, "lng": -81.5769325160806, "label": "display"}], "city": "Cambridge", "cc": "US", "country": "United States", "postalCode": "43725", "state": "OH", "formattedAddress": ["Clark St", "Cambridge, OH 43725", "United States"], "address": "Clark St", "lat": 40.04106490314508, "lng": -81.5769325160806}, "beenHere": {"lastCheckinExpiredAt": 0}, "stats": {"tipCount": 0, "checkinsCount": 8, "usersCount": 3}, "id": "50536576e4b0244ddd88b4f2", "categories": [{"pluralName": "Medical Labs", "primary": true, "name": "Medical Lab", "shortName": "Medical Lab", "id": "4f4531b14b9074f6e4fb0103", "icon": {"prefix": "https://ss3.4sqi.net/img/categories_v2/education/lab_", "suffix": ".png"}}]}, {"referralId": "v-1489699284", "verified": false, "name": "xray at south eastern med for aleksus", "venueRatingBlacklisted": true, "venueChains": [], "hereNow": {"count": 0, "groups": [], "summary": "Nobody here"}, "specials": {"count": 0, "items": []}, "contact": {}, "hasPerk": false, "location": {"distance": 21254, "labeledLatLngs": [{"lat": 40.04043960571289, "lng": -81.57878112792969, "label": "display"}], "city": "Cambridge", "cc": "US", "country": "United States", "postalCode": "43725", "state": "OH", "formattedAddress": ["Cambridge, OH 43725", "United States"], "lat": 40.04043960571289, "lng": -81.57878112792969}, "beenHere": {"lastCheckinExpiredAt": 0}, "stats": {"tipCount": 0, "checkinsCount": 1, "usersCount": 1}, "id": "512f7bd9e4b01bec2378c926", "categories": [{"pluralName": "Hospitals", "primary": true, "name": "Hospital", "shortName": "Hospital", "id": "4bf58dd8d48988d196941735", "icon": {"prefix": "https://ss3.4sqi.net/img/categories_v2/building/medical_", "suffix": ".png"}}]}, {"referralId": "v-1489699284", "verified": false, "name": "Psych Ward", "venueRatingBlacklisted": true, "venueChains": [], "hereNow": {"count": 0, "groups": [], "summary": "Nobody here"}, "specials": {"count": 0, "items": []}, "contact": {}, "hasPerk": false, "location": {"distance": 22541, "labeledLatLngs": [{"lat": 40.031095, "lng": -81.58984, "label": "display"}], "city": "Cambridge", "cc": "US", "country": "United States", "postalCode": "43725", "state": "OH", "formattedAddress": ["Cambridge, OH 43725", "United States"], "lat": 40.031095, "lng": -81.58984}, "beenHere": {"lastCheckinExpiredAt": 0}, "stats": {"tipCount": 0, "checkinsCount": 4, "usersCount": 1}, "id": "50f08f46e4b036c5c17c869d", "categories": [{"pluralName": "Hospitals", "primary": true, "name": "Hospital", "shortName": "Hospital", "id": "4bf58dd8d48988d196941735", "icon": {"prefix": "https://ss3.4sqi.net/img/categories_v2/building/medical_", "suffix": ".png"}}]}, {"referralId": "v-1489699284", "verified": false, "name": "Labor Room 3", "venueRatingBlacklisted": true, "venueChains": [], "hereNow": {"count": 0, "groups": [], "summary": "Nobody here"}, "specials": {"count": 0, "items": []}, "contact": {}, "hasPerk": false, "location": {"distance": 19815, "labeledLatLngs": [{"lat": 40.04964065551758, "lng": -81.56553649902344, "label": "display"}], "cc": "US", "country": "United States", "state": "Ohio", "formattedAddress": ["Ohio", "United States"], "lat": 40.04964065551758, "lng": -81.56553649902344}, "beenHere": {"lastCheckinExpiredAt": 0}, "stats": {"tipCount": 0, "checkinsCount": 1, "usersCount": 1}, "id": "4e56378dae6040e96dff4bb4", "categories": [{"pluralName": "Hospitals", "primary": true, "name": "Hospital", "shortName": "Hospital", "id": "4bf58dd8d48988d196941735", "icon": {"prefix": "https://ss3.4sqi.net/img/categories_v2/building/medical_", "suffix": ".png"}}]}, {"referralId": "v-1489699284", "verified": false, "name": "Child Birth Room 124", "venueRatingBlacklisted": true, "venueChains": [], "hereNow": {"count": 0, "groups": [], "summary": "Nobody here"}, "specials": {"count": 0, "items": []}, "contact": {}, "hasPerk": false, "location": {"distance": 21050, "labeledLatLngs": [{"lat": 40.040817966666665, "lng": -81.57639221666666, "label": "display"}], "cc": "US", "country": "United States", "state": "Ohio", "formattedAddress": ["Ohio", "United States"], "lat": 40.040817966666665, "lng": -81.57639221666666}, "beenHere": {"lastCheckinExpiredAt": 0}, "stats": {"tipCount": 0, "checkinsCount": 5, "usersCount": 1}, "id": "4e56c1e3ae60220987bae9e2", "categories": [{"pluralName": "Hospitals", "primary": true, "name": "Hospital", "shortName": "Hospital", "id": "4bf58dd8d48988d196941735", "icon": {"prefix": "https://ss3.4sqi.net/img/categories_v2/building/medical_", "suffix": ".png"}}]}]}}