{"notifications": [{"item": {"unreadCount": 0}, "type": "notificationTray"}], "meta": {"code": 200, "requestId": "58cb01e16a607125f10f2dde"}, "response": {"confident": true, "venues": [{"referralId": "v-1489699297", "verified": false, "name": "Phoebe Worth Medical Center", "venueRatingBlacklisted": true, "venueChains": [], "hereNow": {"count": 0, "groups": [], "summary": "Nobody here"}, "specials": {"count": 0, "items": []}, "contact": {}, "hasPerk": false, "location": {"distance": 29087, "labeledLatLngs": [{"lat": 31.511805400830955, "lng": -83.8404634146241, "label": "display"}], "city": "Sylvester", "cc": "US", "country": "United States", "state": "GA", "formattedAddress": ["Sylvester, GA", "United States"], "lat": 31.511805400830955, "lng": -83.8404634146241}, "beenHere": {"lastCheckinExpiredAt": 0}, "stats": {"tipCount": 1, "checkinsCount": 122, "usersCount": 34}, "id": "4dc59ba1c65b89d3ca736263", "categories": [{"pluralName": "Hospitals", "primary": true, "name": "Hospital", "shortName": "Hospital", "id": "4bf58dd8d48988d196941735", "icon": {"prefix": "https://ss3.4sqi.net/img/categories_v2/building/medical_", "suffix": ".png"}}]}, {"referralId": "v-1489699297", "verified": false, "name": "Crisp Regional Hospital", "venueRatingBlacklisted": true, "venueChains": [], "hereNow": {"count": 0, "groups": [], "summary": "Nobody here"}, "specials": {"count": 0, "items": []}, "contact": {}, "hasPerk": false, "location": {"distance": 31661, "labeledLatLngs": [{"lat": 31.97794621645535, "lng": -83.78230555369672, "label": "display"}], "city": "Cordele", "cc": "US", "country": "United States", "state": "GA", "formattedAddress": ["Cordele, GA", "United States"], "lat": 31.97794621645535, "lng": -83.78230555369672}, "beenHere": {"lastCheckinExpiredAt": 0}, "stats": {"tipCount": 0, "checkinsCount": 167, "usersCount": 37}, "id": "4e716586aeb79ea094f06f2f", "categories": [{"pluralName": "Hospitals", "primary": true, "name": "Hospital", "shortName": "Hospital", "id": "4bf58dd8d48988d196941735", "icon": {"prefix": "https://ss3.4sqi.net/img/categories_v2/building/medical_", "suffix": ".png"}}]}, {"referralId": "v-1489699297", "verified": false, "name": "Dorminy Medical Center", "venueRatingBlacklisted": true, "venueChains": [], "hereNow": {"count": 0, "groups": [], "summary": "Nobody here"}, "specials": {"count": 0, "items": []}, "contact": {}, "hasPerk": false, "location": {"distance": 36983, "labeledLatLngs": [{"lat": 31.69753524633396, "lng": -83.2601320099442, "label": "display"}], "city": "Fitzgerald", "cc": "US", "country": "United States", "postalCode": "Rwzd0", "state": "GA", "formattedAddress": ["Eoo perry house road", "Fitzgerald, GA Rwzd0", "United States"], "address": "Eoo perry house road", "lat": 31.69753524633396, "lng": -83.2601320099442}, "beenHere": {"lastCheckinExpiredAt": 0}, "stats": {"tipCount": 1, "checkinsCount": 80, "usersCount": 31}, "id": "4cdef147f8cdb1f7c9768e12", "categories": [{"pluralName": "Hospitals", "primary": true, "name": "Hospital", "shortName": "Hospital", "id": "4bf58dd8d48988d196941735", "icon": {"prefix": "https://ss3.4sqi.net/img/categories_v2/building/medical_", "suffix": ".png"}}]}, {"referralId": "v-1489699297", "verified": false, "name": "ICU Tift Regional Medical Center", "venueRatingBlacklisted": true, "venueChains": [], "hereNow": {"count": 0, "groups": [], "summary": "Nobody here"}, "specials": {"count": 0, "items": []}, "contact": {}, "hasPerk": false, "location": {"distance": 31119, "labeledLatLngs": [{"lat": 31.471963778178157, "lng": -83.4913132247514, "label": "display"}], "city": "Tifton", "cc": "US", "country": "United States", "state": "GA", "formattedAddress": ["Tifton, GA", "United States"], "lat": 31.471963778178157, "lng": -83.4913132247514}, "beenHere": {"lastCheckinExpiredAt": 0}, "stats": {"tipCount": 0, "checkinsCount": 45, "usersCount": 16}, "id": "4e5a8a3162e1de72f7007441", "categories": [{"pluralName": "Hospitals", "primary": true, "name": "Hospital", "shortName": "Hospital", "id": "4bf58dd8d48988d196941735", "icon": {"prefix": "https://ss3.4sqi.net/img/categories_v2/building/medical_", "suffix": ".png"}}]}, {"referralId": "v-1489699297", "verified": false, "name": "Tift Oncology", "venueRatingBlacklisted": true, "venueChains": [], "hereNow": {"count": 0, "groups": [], "summary": "Nobody here"}, "specials": {"count": 0, "items": []}, "allowMenuUrlEdit": true, "contact": {}, "hasPerk": false, "location": {"distance": 31494, "labeledLatLngs": [{"lat": 31.46899301727479, "lng": -83.48945405452753, "label": "display"}], "city": "Tifton", "cc": "US", "country": "United States", "postalCode": "31794", "state": "GA", "formattedAddress": ["Tifton, GA 31794", "United States"], "lat": 31.46899301727479, "lng": -83.48945405452753}, "beenHere": {"lastCheckinExpiredAt": 0}, "stats": {"tipCount": 0, "checkinsCount": 102, "usersCount": 16}, "id": "4f5e00f4e4b03a6a13c16760", "categories": [{"pluralName": "Hospitals", "primary": true, "name": "Hospital", "shortName": "Hospital", "id": "4bf58dd8d48988d196941735", "icon": {"prefix": "https://ss3.4sqi.net/img/categories_v2/building/medical_", "suffix": ".png"}}]}, {"referralId": "v-1489699297", "verified": false, "name": "Tift Regional Medical Center", "venueRatingBlacklisted": true, "venueChains": [], "hereNow": {"count": 0, "groups": [], "summary": "Nobody here"}, "specials": {"count": 0, "items": []}, "contact": {}, "hasPerk": false, "location": {"distance": 31183, "labeledLatLngs": [{"lat": 31.471233002527025, "lng": -83.4914694550598, "label": "display"}], "city": "Tifton", "cc": "US", "country": "United States", "postalCode": "31794", "state": "GA", "formattedAddress": ["E 20th St", "Tifton, GA 31794", "United States"], "address": "E 20th St", "lat": 31.471233002527025, "lng": -83.4914694550598}, "beenHere": {"lastCheckinExpiredAt": 0}, "stats": {"tipCount": 5, "checkinsCount": 1116, "usersCount": 188}, "id": "4d70d74743013704a1c8fab8", "categories": [{"pluralName": "Hospitals", "primary": true, "name": "Hospital", "shortName": "Hospital", "id": "4bf58dd8d48988d196941735", "icon": {"prefix": "https://ss3.4sqi.net/img/categories_v2/building/medical_", "suffix": ".png"}}]}, {"referralId": "v-1489699297", "verified": false, "name": "Cordele Health & Rehab Center", "venueRatingBlacklisted": true, "venueChains": [], "hereNow": {"count": 0, "groups": [], "summary": "Nobody here"}, "specials": {"count": 0, "items": []}, "contact": {}, "hasPerk": false, "location": {"distance": 31707, "labeledLatLngs": [{"lat": 31.9800338, "lng": -83.7777125, "label": "display"}], "city": "Cordele", "cc": "US", "country": "United States", "postalCode": "31015", "state": "GA", "formattedAddress": ["1106 N 4th St", "Cordele, GA 31015", "United States"], "address": "1106 N 4th St", "lat": 31.9800338, "lng": -83.7777125}, "beenHere": {"lastCheckinExpiredAt": 0}, "stats": {"tipCount": 0, "checkinsCount": 3, "usersCount": 3}, "id": "4ed115f661af476c095d6985", "categories": [{"pluralName": "Hospitals", "primary": true, "name": "Hospital", "shortName": "Hospital", "id": "4bf58dd8d48988d196941735", "icon": {"prefix": "https://ss3.4sqi.net/img/categories_v2/building/medical_", "suffix": ".png"}}]}, {"referralId": "v-1489699297", "verified": false, "name": "Life Care Center", "venueRatingBlacklisted": true, "venueChains": [], "hereNow": {"count": 0, "groups": [], "summary": "Nobody here"}, "specials": {"count": 0, "items": []}, "contact": {}, "hasPerk": false, "location": {"distance": 35733, "labeledLatLngs": [{"lat": 31.70963, "lng": -83.272753, "label": "display"}], "city": "Fitzgerald", "cc": "US", "country": "United States", "state": "GA", "formattedAddress": ["Fitzgerald, GA", "United States"], "lat": 31.70963, "lng": -83.272753}, "beenHere": {"lastCheckinExpiredAt": 0}, "stats": {"tipCount": 0, "checkinsCount": 6, "usersCount": 5}, "id": "51fec2d9498ecee292c49ce6", "categories": [{"pluralName": "Hospitals", "primary": true, "name": "Hospital", "shortName": "Hospital", "id": "4bf58dd8d48988d196941735", "icon": {"prefix": "https://ss3.4sqi.net/img/categories_v2/building/medical_", "suffix": ".png"}}]}, {"referralId": "v-1489699297", "verified": false, "name": "Crisp Regional Same Day Surgery", "venueRatingBlacklisted": true, "venueChains": [], "hereNow": {"count": 0, "groups": [], "summary": "Nobody here"}, "specials": {"count": 0, "items": []}, "contact": {}, "hasPerk": false, "location": {"distance": 31566, "labeledLatLngs": [{"lat": 31.977334061696787, "lng": -83.78141397824022, "label": "display"}], "city": "Cordele", "cc": "US", "country": "United States", "state": "GA", "formattedAddress": ["Cordele, GA", "United States"], "lat": 31.977334061696787, "lng": -83.78141397824022}, "beenHere": {"lastCheckinExpiredAt": 0}, "stats": {"tipCount": 0, "checkinsCount": 7, "usersCount": 5}, "id": "4e6f8179483bd41a3dcc0086", "categories": [{"pluralName": "Hospitals", "primary": true, "name": "Hospital", "shortName": "Hospital", "id": "4bf58dd8d48988d196941735", "icon": {"prefix": "https://ss3.4sqi.net/img/categories_v2/building/medical_", "suffix": ".png"}}]}, {"referralId": "v-1489699297", "verified": false, "name": "tift health care", "venueRatingBlacklisted": true, "venueChains": [], "hereNow": {"count": 0, "groups": [], "summary": "Nobody here"}, "specials": {"count": 0, "items": []}, "contact": {}, "hasPerk": false, "location": {"distance": 30395, "labeledLatLngs": [{"lat": 31.473533630371094, "lng": -83.50411987304688, "label": "display"}], "city": "Tifton", "cc": "US", "country": "United States", "postalCode": "31794", "state": "GA", "formattedAddress": ["Tifton, GA 31794", "United States"], "lat": 31.473533630371094, "lng": -83.50411987304688}, "beenHere": {"lastCheckinExpiredAt": 0}, "stats": {"tipCount": 0, "checkinsCount": 5, "usersCount": 1}, "id": "4fde1d12e4b03622b1fef1df", "categories": [{"pluralName": "Hospitals", "primary": true, "name": "Hospital", "shortName": "Hospital", "id": "4bf58dd8d48988d196941735", "icon": {"prefix": "https://ss3.4sqi.net/img/categories_v2/building/medical_", "suffix": ".png"}}]}, {"referralId": "v-1489699297", "verified": false, "name": "tift regional sleep center", "venueRatingBlacklisted": true, "venueChains": [], "hereNow": {"count": 0, "groups": [], "summary": "Nobody here"}, "specials": {"count": 0, "items": []}, "contact": {}, "hasPerk": false, "location": {"distance": 31567, "labeledLatLngs": [{"lat": 31.467653274536133, "lng": -83.49070739746094, "label": "display"}], "city": "Tifton", "cc": "US", "country": "United States", "state": "GA", "formattedAddress": ["Tifton, GA", "United States"], "lat": 31.467653274536133, "lng": -83.49070739746094}, "beenHere": {"lastCheckinExpiredAt": 0}, "stats": {"tipCount": 0, "checkinsCount": 2, "usersCount": 2}, "id": "5143b54ee4b0acadf1a884bf", "categories": [{"pluralName": "Hospitals", "primary": true, "name": "Hospital", "shortName": "Hospital", "id": "4bf58dd8d48988d196941735", "icon": {"prefix": "https://ss3.4sqi.net/img/categories_v2/building/medical_", "suffix": ".png"}}]}, {"referralId": "v-1489699297", "verified": false, "name": "Crisp Regional Laboratory", "venueRatingBlacklisted": true, "venueChains": [], "hereNow": {"count": 0, "groups": [], "summary": "Nobody here"}, "specials": {"count": 0, "items": []}, "contact": {}, "hasPerk": false, "location": {"distance": 31607, "labeledLatLngs": [{"lat": 31.977676, "lng": -83.781594, "label": "display"}], "city": "Cordele", "cc": "US", "country": "United States", "postalCode": "31015", "state": "GA", "formattedAddress": ["Cordele, GA 31015", "United States"], "lat": 31.977676, "lng": -83.781594}, "beenHere": {"lastCheckinExpiredAt": 0}, "stats": {"tipCount": 0, "checkinsCount": 2, "usersCount": 2}, "id": "50c8cb20e4b0d1a96048b3e6", "categories": [{"pluralName": "Hospitals", "primary": true, "name": "Hospital", "shortName": "Hospital", "id": "4bf58dd8d48988d196941735", "icon": {"prefix": "https://ss3.4sqi.net/img/categories_v2/building/medical_", "suffix": ".png"}}]}, {"referralId": "v-1489699297", "verified": false, "name": "Tift Regional ICU Dialisys Room", "venueRatingBlacklisted": true, "venueChains": [], "hereNow": {"count": 0, "groups": [], "summary": "Nobody here"}, "specials": {"count": 0, "items": []}, "contact": {}, "hasPerk": false, "location": {"distance": 30688, "labeledLatLngs": [{"lat": 31.472752976409694, "lng": -83.49915799213836, "label": "display"}], "city": "Tifton", "cc": "US", "country": "United States", "state": "GA", "formattedAddress": ["Tifton, GA", "United States"], "lat": 31.472752976409694, "lng": -83.49915799213836}, "beenHere": {"lastCheckinExpiredAt": 0}, "stats": {"tipCount": 0, "checkinsCount": 3, "usersCount": 2}, "id": "4e62592bc65b2dc89f952b11", "categories": [{"pluralName": "Hospitals", "primary": true, "name": "Hospital", "shortName": "Hospital", "id": "4bf58dd8d48988d196941735", "icon": {"prefix": "https://ss3.4sqi.net/img/categories_v2/building/medical_", "suffix": ".png"}}]}, {"referralId": "v-1489699297", "verified": false, "name": "tifton hospital", "venueRatingBlacklisted": true, "venueChains": [], "hereNow": {"count": 0, "groups": [], "summary": "Nobody here"}, "specials": {"count": 0, "items": []}, "contact": {}, "hasPerk": false, "location": {"distance": 31126, "labeledLatLngs": [{"lat": 31.47203096013149, "lng": -83.49100597068825, "label": "display"}], "city": "Tifton", "cc": "US", "country": "United States", "postalCode": "31794", "state": "GA", "formattedAddress": ["Tifton, GA 31794", "United States"], "lat": 31.47203096013149, "lng": -83.49100597068825}, "beenHere": {"lastCheckinExpiredAt": 0}, "stats": {"tipCount": 1, "checkinsCount": 16, "usersCount": 7}, "id": "4fa25c07e4b07ed2184b49f7", "categories": [{"pluralName": "Hospitals", "primary": true, "name": "Hospital", "shortName": "Hospital", "id": "4bf58dd8d48988d196941735", "icon": {"prefix": "https://ss3.4sqi.net/img/categories_v2/building/medical_", "suffix": ".png"}}]}, {"referralId": "v-1489699297", "verified": false, "name": "TRMC Sleep Center", "venueRatingBlacklisted": true, "venueChains": [], "hereNow": {"count": 0, "groups": [], "summary": "Nobody here"}, "specials": {"count": 0, "items": []}, "contact": {}, "hasPerk": false, "location": {"distance": 31564, "labeledLatLngs": [{"lat": 31.467566997955, "lng": -83.4909729749634, "label": "display"}], "city": "Tifton", "cc": "US", "country": "United States", "postalCode": "31794", "state": "GA", "formattedAddress": ["Madison Avenue", "Tifton, GA 31794", "United States"], "address": "Madison Avenue", "lat": 31.467566997955, "lng": -83.4909729749634}, "beenHere": {"lastCheckinExpiredAt": 0}, "stats": {"tipCount": 0, "checkinsCount": 1, "usersCount": 1}, "id": "4ee69c98b8f790fe41d32360", "categories": [{"pluralName": "Hospitals", "primary": true, "name": "Hospital", "shortName": "Hospital", "id": "4bf58dd8d48988d196941735", "icon": {"prefix": "https://ss3.4sqi.net/img/categories_v2/building/medical_", "suffix": ".png"}}]}, {"referralId": "v-1489699297", "verified": false, "name": "Crisp Regional", "venueRatingBlacklisted": true, "venueChains": [], "hereNow": {"count": 0, "groups": [], "summary": "Nobody here"}, "specials": {"count": 0, "items": []}, "contact": {}, "hasPerk": false, "location": {"distance": 31607, "labeledLatLngs": [{"lat": 31.977716333565343, "lng": -83.78147099798534, "label": "display"}], "city": "Cordele", "cc": "US", "country": "United States", "postalCode": "31015", "state": "GA", "formattedAddress": ["Cordele, GA 31015", "United States"], "lat": 31.977716333565343, "lng": -83.78147099798534}, "beenHere": {"lastCheckinExpiredAt": 0}, "stats": {"tipCount": 1, "checkinsCount": 124, "usersCount": 24}, "id": "4c71390eb5a5236ace5d5252", "categories": [{"pluralName": "Emergency Rooms", "primary": true, "name": "Emergency Room", "shortName": "Emergency Room", "id": "4bf58dd8d48988d194941735", "icon": {"prefix": "https://ss3.4sqi.net/img/categories_v2/building/medical_ems_", "suffix": ".png"}}]}, {"referralId": "v-1489699297", "verified": false, "name": "TRMC", "venueRatingBlacklisted": true, "venueChains": [], "hereNow": {"count": 0, "groups": [], "summary": "Nobody here"}, "specials": {"count": 0, "items": []}, "contact": {}, "hasPerk": false, "location": {"distance": 31128, "labeledLatLngs": [{"lat": 31.471731, "lng": -83.491609, "label": "display"}], "city": "Tifton", "cc": "US", "country": "United States", "postalCode": "31794", "state": "GA", "formattedAddress": ["Tifton, GA 31794", "United States"], "lat": 31.471731, "lng": -83.491609}, "beenHere": {"lastCheckinExpiredAt": 0}, "stats": {"tipCount": 0, "checkinsCount": 59, "usersCount": 32}, "id": "4bc5e95f51b376b02b9d1a6f", "categories": [{"pluralName": "Hospitals", "primary": true, "name": "Hospital", "shortName": "Hospital", "id": "4bf58dd8d48988d196941735", "icon": {"prefix": "https://ss3.4sqi.net/img/categories_v2/building/medical_", "suffix": ".png"}}]}, {"referralId": "v-1489699297", "verified": false, "name": "Reflections Hospice", "venueRatingBlacklisted": true, "venueChains": [], "hereNow": {"count": 0, "groups": [], "summary": "Nobody here"}, "specials": {"count": 0, "items": []}, "contact": {}, "hasPerk": false, "location": {"distance": 31428, "labeledLatLngs": [{"lat": 31.976178, "lng": -83.780906, "label": "display"}], "city": "Cordele", "cc": "US", "country": "United States", "state": "GA", "formattedAddress": ["Cordele, GA", "United States"], "lat": 31.976178, "lng": -83.780906}, "beenHere": {"lastCheckinExpiredAt": 0}, "stats": {"tipCount": 0, "checkinsCount": 1, "usersCount": 1}, "id": "52064185498ea3fd01f0de64", "categories": [{"pluralName": "Hospitals", "primary": true, "name": "Hospital", "shortName": "Hospital", "id": "4bf58dd8d48988d196941735", "icon": {"prefix": "https://ss3.4sqi.net/img/categories_v2/building/medical_", "suffix": ".png"}}]}]}}